City,latitude,longitude
Ahemdabad,23.0225,72.5714
Agra,27.1767,78.0081
Dehradun,30.3165,78.0322
Delhi,28.7041,77.1025
Bhopal,23.2599,77.4126
Jaipur,26.9124,75.7873
Jammu,32.7266,74.857
Chandigarh,30.7333,76.7794
Luckhnow,26.8467,80.9462
Mumbai,19.076,72.8777
Shimla,31.1048,77.1734
Indore,22.7196,75.8577
Pune,18.5204,73.8567
varanasi,25.3176,82.9739
